NAME,state_abbrev,name_simp,y2018_population,y2018_white_alone,y2018_black_alone,y2018_f_born,y2018_total_hh,y2018_married_hh,y2018_median_income,y2018_houses_for_sale,y2018_median_value,latitude,longitude,state,division,region,y2013_population,y2013_white_alone,y2013_black_alone,y2013_f_born,y2013_total_hh,y2013_married_hh,y2013_median_income,y2013_houses_for_sale,y2013_median_value,y2014_population,y2014_white_alone,y2014_black_alone,y2014_f_born,y2014_total_hh,y2014_married_hh,y2014_median_income,y2014_houses_for_sale,y2014_median_value,y2015_population,y2015_white_alone,y2015_black_alone,y2015_f_born,y2015_total_hh,y2015_married_hh,y2015_median_income,y2015_houses_for_sale,y2015_median_value,y2016_population,y2016_white_alone,y2016_black_alone,y2016_f_born,y2016_total_hh,y2016_married_hh,y2016_median_income,y2016_houses_for_sale,y2016_median_value,y2017_population,y2017_white_alone,y2017_black_alone,y2017_f_born,y2017_total_hh,y2017_married_hh,y2017_median_income,y2017_houses_for_sale,y2017_median_value
"New York-Newark-Jersey City, NY-NJ-PA Metro Area",NY,New York,19990592,11643206,3416157,5761610,7196383,3343799,35423,62525,426100,40.71427,-74.00597,New York,Mid-Atlantic,Northeast,19716880,11833135,3392991,5564308,7078765,3263214,31762,69206,406700,19865045,11797761,3412320,5655928,7105003,3268278,31955,66739,400000,19979950,11783565,3421133,5720645,7121206,3277431,31887,65765,398800,20031443,11761690,3427574,5749079,7138559,3288406,32308,62474,403300,20192042,11768269,3455984,5825572,7168027,3322667,33594,62390,413200
"Los Angeles-Long Beach-Anaheim, CA Metro Area",CA,Los Angeles,13262234,7137761,878719,4412258,4338482,2049978,29620,21677,579500,34.05223,-118.24368,California,Pacific,West,12945252,7190204,883313,4400918,4225895,1985667,26010,30051,448000,13060534,7272008,883019,4420863,4244676,1988527,25999,28271,454200,13154457,7316316,882607,4436466,4272422,2005900,26101,25250,470300,13189366,7258206,882832,4425780,4298857,2023245,26651,22573,493900,13261538,7193319,882243,4433588,4320174,2039262,27683,21104,537000
"Chicago-Naperville-Elgin, IL-IN-WI Metro Area",IL,Chicago,9536428,6278469,1586538,1686996,3495713,1661213,32772,41434,231400,41.85003,-87.65005,Illinois,East North Central,Midwest,9488493,6314383,1625456,1669830,3429738,1650492,29904,55823,225000,9516448,6339010,1620641,1679627,3438560,1646724,30118,51791,217300,9534008,6340359,1613896,1693807,3448499,1648656,30321,49534,214400,9528396,6317574,1606204,1682220,3464942,1650560,30827,44191,216000,9549229,6303072,1599415,1689797,3481330,1657491,31675,42613,222600
"Dallas-Fort Worth-Arlington, TX Metro Area",TX,Dallas,7255028,5012939,1126696,1328417,2536055,1295468,32634,18480,193100,32.78306,-96.80667,Texas,West South Central,South,6575833,4538248,980654,1141778,2333532,1186240,29968,26156,150000,6703020,4658230,1005927,1170629,2370055,1198849,30161,23111,151900,6833420,4765303,1032978,1206720,2407330,1218106,30324,21456,156500,6957123,4850749,1063621,1238600,2451163,1242536,30721,18359,163900,7104415,4930563,1093212,1285060,2494426,1269299,31671,18662,174500
"Houston-The Woodlands-Sugar Land, TX Metro Area",TX,Houston,6779104,4426906,1169670,1583503,2310213,1181703,31766,21651,179100,29.76328,-95.36327,Texas,West South Central,South,6063540,3986513,1045873,1350399,2068518,1054336,28584,25763,141400,6204141,4069616,1069601,1394516,2112447,1071289,29144,23972,144000,6346653,4167710,1086282,1438555,2168642,1099504,29770,21234,149300,6482592,4258148,1114979,1485232,2223829,1127329,30263,20105,157400,6636208,4359111,1141697,1538097,2271561,1159994,31048,20713,166500
"Washington-Arlington-Alexandria, DC-VA-MD-WV Metro Area",DC,Washington,6138382,3319114,1555778,1396380,2191338,1086743,46233,16874,411500,40.70365,-89.40731,District of Columbia,South Atlantic,South,5759330,3228757,1470979,1245847,2091301,1023000,42575,20002,373100,5863608,3278431,1490421,1285767,2112551,1030339,42627,18189,373300,5949403,3301039,1509842,1315848,2135657,1046714,42428,16443,378400,6011752,3312627,1527439,1340598,2155967,1059531,42735,16360,387400,6090196,3322625,1547874,1377353,2170034,1073498,44334,16655,397900
"Miami-Fort Lauderdale-West Palm Beach, FL Metro Area",FL,Miami,6070944,4279818,1293936,2450422,2100355,925484,26396,26317,259300,25.77427,-80.19366,Florida,South Atlantic,South,5673185,4061742,1199613,2174308,2017496,889148,23923,39858,194300,5775204,4135885,1229061,2233014,2030848,890136,24020,34859,188700,5861000,4187164,1252870,2278836,2047042,895864,24093,30334,197900,5926955,4211497,1269852,2334395,2065161,907022,24698,27854,215700,6019790,4266292,1286415,2406913,2077708,913561,25457,26260,236500
"Philadelphia-Camden-Wilmington, PA-NJ-DE-MD Metro Area",PA,Philadelphia,6069448,4065435,1273284,653086,2264041,1044420,33643,24873,245000,39.95234,-75.16379,Pennsylvania,Mid-Atlantic,Northeast,5992766,4106566,1250223,586013,2226631,1035033,30783,27696,240200,6015336,4098723,1256908,597654,2229039,1029900,30853,26935,237600,6035680,4093540,1258405,609314,2230987,1029134,30998,26656,236600,6047721,4080796,1266040,622091,2235205,1029843,31347,25732,237700,6065644,4083283,1270826,638524,2253471,1036756,32270,25393,240700
"Atlanta-Sandy Springs-Roswell, GA Metro Area",GA,Atlanta,5779463,3122337,1961791,792208,2065239,995236,31834,23884,199200,33.749,-84.38798,Georgia,South Atlantic,South,5379176,3027755,1753777,720983,1917581,930976,28901,44967,170400,5455053,3057896,1794205,727285,1936823,933516,28753,40092,167400,5535837,3086318,1831421,743005,1964316,945617,29020,35125,168100,5612777,3095400,1878072,753516,1994730,959251,29991,28591,173300,5700990,3112830,1920782,777519,2029045,977583,30824,25523,184200
"Boston-Cambridge-Newton, MA-NH Metro Area",MA,Boston,4811732,3679379,392241,894766,1819113,874785,39019,10181,414700,42.35843,-71.05977,Massachusetts,New England,Northeast,4604278,3621435,349347,771081,1755666,837128,33981,12795,362400,4650876,3633194,357691,794041,1764845,841099,34481,11902,363600,4694565,3645403,367750,813764,1776440,848964,34711,10665,368900,4728844,3655168,376601,835760,1784448,852969,35773,10347,379200,4771936,3674413,384527,866821,1804136,869355,37070,10060,393500
"Phoenix-Mesa-Scottsdale, AZ Metro Area",AZ,Phoenix,4673634,3638425,251472,671507,1658053,796204,30979,20933,234300,33.44838,-112.07404,Arizona,Mountain,West,4268289,3435840,217157,616262,1535460,742639,28299,35802,170700,4337542,3472199,221763,625736,1550372,742483,28329,33367,170200,4407915,3507041,227743,634777,1570117,747684,28436,28487,179100,4486153,3531990,234287,641471,1596641,762291,28974,24720,196400,4561038,3567763,240636,653360,1623046,779674,30157,23090,216600
"San Francisco-Oakland-Hayward, CA Metro Area",CA,San Francisco,4673221,2330954,343428,1429826,1692047,831295,42757,6521,781200,37.77493,-122.41942,California,Pacific,West,4402729,2410642,357664,1310804,1627123,762058,36060,12926,579300,4466251,2409759,355847,1336045,1642466,774385,36338,10178,592000,4528894,2398188,355068,1360620,1660221,788246,36790,8027,617000,4577530,2384574,349339,1384161,1674040,804663,38639,7458,661300,4641820,2363171,346781,1413878,1684081,817395,40590,6700,716500
"Riverside-San Bernardino-Ontario, CA Metro Area",CA,Riverside,4518699,2755181,331949,964434,1348982,715258,26690,16167,320400,39.77978,-84.1241,California,Pacific,West,4285443,2769756,318253,920860,1287023,686994,24508,25568,227300,4345485,2786762,321617,941363,1297992,688663,24498,22212,231800,4392801,2786752,323063,951508,1313557,691328,24393,19565,245900,4430646,2776876,325758,957455,1324638,697846,24884,17307,267500,4476222,2763173,327634,956427,1335366,706551,25651,16352,293800
"Detroit-Warren-Dearborn, MI Metro Area",MI,Detroit,4317179,3001586,961060,422628,1690744,763288,30418,19837,160600,42.33143,-83.04575,Michigan,East North Central,Midwest,4295700,3019858,971840,379510,1654891,764160,26678,28330,124400,4292647,3012559,967425,383033,1656829,758099,26934,25685,122800,4296416,3010754,965338,392502,1662948,757919,27097,24597,127500,4296731,3002377,962627,400216,1672081,757837,27825,21983,137200,4304613,3000249,960838,413469,1682662,763493,29346,20257,149900
"Seattle-Tacoma-Bellevue, WA Metro Area",WA,Seattle,3809717,2636919,216114,695017,1473063,730844,40164,9971,397000,47.60621,-122.33207,Washington,Pacific,West,3504628,2560031,194621,591405,1371951,665528,34286,15706,321500,3557037,2579177,198650,608584,1381607,668831,34590,14614,315700,3614361,2595362,201348,623751,1398003,680853,35167,12947,321400,3671095,2608784,204089,641151,1417727,692692,36183,11705,338600,3735216,2622692,208555,665983,1448393,713680,37726,11103,365400
"Minneapolis-St. Paul-Bloomington, MN-WI Metro Area",MN,Minneapolis,3557528,2818515,294958,376523,1366959,693081,37770,8004,242800,44.97997,-93.26384,Minnesota,West North Central,Midwest,3391191,2767821,246991,323423,1314563,665210,33428,13878,216500,3424786,2779295,255030,331886,1323355,667084,34027,12175,212600,3458790,2790735,262209,343504,1334395,673350,34296,11106,213900,3488436,2800357,270924,349066,1343140,679262,35248,10135,220700,3526149,2807369,283177,366271,1355503,687844,36297,9620,230700
"San Diego-Carlsbad, CA Metro Area",CA,San Diego,3302833,2335447,166412,774365,1118980,561609,32447,6342,526300,32.71533,-117.15726,California,Pacific,West,3138265,2241045,158843,733577,1076483,531598,29851,11423,402100,3183143,2259494,160316,743480,1083811,536854,29848,9849,412800,3223096,2283618,163276,758527,1094157,542897,29853,8737,429600,3253356,2310046,163928,765533,1103128,550153,30432,7720,454600,3283665,2325434,164571,774362,1111739,556665,31403,6500,484900
"Tampa-St. Petersburg-Clearwater, FL Metro Area",FL,Tampa,3030047,2363816,365400,410854,1196966,531522,28041,18850,175600,27.94752,-82.45843,Florida,South Atlantic,South,2819241,2252942,337679,353095,1125965,505303,25528,24417,146500,2851235,2262560,340888,362154,1134997,503186,25717,23288,141900,2888458,2278794,346574,371090,1145501,506900,25891,20822,144600,2927714,2305452,350019,378191,1161839,513191,26282,19833,152600,2978209,2335632,357666,393108,1180768,524462,26981,19273,162600
"Denver-Aurora-Lakewood, CO Metro Area",CO,Denver,2850221,2319051,161354,349691,1094028,528385,37774,5236,350500,39.73915,-104.9847,Colorado,Mountain,West,2601465,2116997,144113,311594,1011588,484309,32477,11605,247800,2651392,2161498,146943,323181,1025246,489286,33082,9459,253100,2703972,2213140,150830,330595,1042103,498919,33578,7500,267000,2752056,2252942,155202,337083,1058467,509606,34732,5901,287400,2798684,2285334,156781,343760,1075807,518961,36132,5391,317100
"St. Louis, MO-IL Metro Area",MO,St. Louis,2805551,2130570,513025,132487,1118263,526409,31786,15065,167700,38.62727,-90.19789,Missouri,West North Central,Midwest,2792127,2140284,511901,123851,1104400,526464,28370,18558,158100,2797737,2141554,513068,125211,1104257,524853,28809,18523,156900,2801914,2141108,511454,125122,1104672,522631,29137,16686,157100,2803449,2138884,512913,125686,1107468,522168,30001,15502,159500,2804998,2135251,513403,128268,1112971,524924,30941,15043,162600
"Baltimore-Columbia-Towson, MD Metro Area",MD,Baltimore,2793250,1690281,814166,289080,1043798,483970,38144,13722,292500,39.29038,-76.61219,Maryland,South Atlantic,South,2734044,1699345,784998,252752,1029322,474764,34644,14405,281400,2753396,1702288,793749,259051,1032863,474138,34982,14015,277600,2769818,1705650,799814,267112,1036312,475103,35098,13863,277500,2780873,1705027,806346,275704,1040674,477932,35844,13553,280500,2792050,1699296,812786,283951,1040704,480493,36739,13168,285700
"Charlotte-Concord-Gastonia, NC-SC Metro Area",NC,Charlotte,2473125,1669633,554467,244708,925313,459052,30846,8597,187700,35.22709,-80.84313,North Carolina,South Atlantic,South,2261321,1577040,496721,207619,848632,421836,26954,13828,164800,2298915,1591506,506743,211636,857926,423563,27062,12986,164900,2338792,1609650,518153,221569,871519,429472,27344,11556,166000,2381152,1628022,529487,229711,885916,437337,28406,10375,170400,2427024,1647912,542050,238515,906355,447897,29867,9460,177000
"Orlando-Kissimmee-Sanford, FL Metro Area",FL,Orlando,2450261,1720668,404516,439735,855265,410929,26960,13883,201600,28.53834,-81.37924,Florida,South Atlantic,South,2183363,1574283,350380,354759,770982,372518,24376,17097,161800,2226835,1600874,361047,364012,779612,375083,24325,14987,156100,2277816,1627159,370772,379528,798168,380704,24455,13415,157900,2328508,1657932,380326,393188,816428,387473,25209,13451,166300,2390859,1686516,391471,414443,837022,400910,25988,13788,180100
"San Antonio-New Braunfels, TX Metro Area",TX,San Antonio,2426204,1962380,164197,287263,803662,390103,27842,7566,161400,29.4241,-98.4936,Texas,West South Central,South,2192724,1713746,141537,258105,759762,374432,25235,9546,131100,2239222,1770074,145284,265693,771789,376549,25496,8768,134600,2286702,1822750,151999,267511,779381,378103,25492,8483,138400,2332345,1868183,156555,275148,786156,380133,26068,7655,144000,2377507,1917756,159667,278724,795519,387653,26892,7382,152400
"Portland-Vancouver-Hillsboro, OR-WA Metro Area",OR,Portland,2417931,1964482,67913,305485,925631,459710,33675,6111,342900,43.66147,-70.25533,Oregon,Pacific,West,2260591,1857416,64958,281081,870751,426091,29075,10277,267500,2288796,1875968,65027,285904,878078,428227,29261,9130,264200,2320323,1901910,65734,290580,886763,432966,29663,7515,270700,2351319,1926303,66051,293891,896514,440341,30634,6986,286800,2382037,1944930,67881,300477,912368,450478,31882,6340,312500
"Pittsburgh, PA Metro Area",PA,Pittsburgh,2339941,2029398,190257,88707,1003283,466671,30823,11974,148000,40.44062,-79.99589,Pennsylvania,Mid-Atlantic,Northeast,2358746,2068540,193351,78388,989179,465674,26436,12273,124800,2358793,2063285,193323,81362,989655,462829,27054,11775,128100,2358926,2058798,193454,85263,991522,463906,27350,11731,132500,2354926,2051961,192647,87078,992104,463255,28339,11733,136700,2348143,2041125,191188,88293,1000493,466539,29798,11827,142100
"Sacramento--Roseville--Arden-Arcade, CA Metro Area",CA,Sacramento,2291738,1499409,162589,423251,819372,402635,31952,6231,365900,38.58157,-121.4944,California,Pacific,West,2174401,1453347,155784,383275,788184,380494,28414,9709,272200,2197422,1462571,157983,389353,791744,381297,28384,8957,275100,2221525,1474715,158337,401062,797135,383857,28428,7965,286500,2242542,1484732,158882,405725,804137,388765,29793,6755,309900,2268005,1492512,160271,415868,811543,396568,30791,6504,339500
"Cincinnati, OH-KY-IN Metro Area",OH,Cincinnati,2168825,1771834,265271,102035,845473,403503,31512,6881,163100,39.162,-84.45689,Ohio,East North Central,Midwest,2122940,1763045,257266,88304,813297,399300,27807,13078,153400,2131793,1764996,260207,89284,817460,398287,28120,12046,152600,2139466,1767230,260912,91272,822679,397697,28399,10822,153400,2146410,1767461,262757,92479,830512,399372,29402,9778,156100,2156723,1770349,263446,98118,838070,403145,30553,8410,158800
"San Juan-Carolina-Caguas, PR Metro Area",PR,San Juan,2142392,1466521,278165,81538,767520,289511,14373,18236,125300,18.4655,-66.1057,NA,NA,NA,2324828,1529254,224950,91885,785798,316821,13633,16819,136000,2297987,1525667,227216,90313,792764,314969,13806,18837,135700,2263582,1534781,233111,87752,794242,310525,13699,19618,134100,2230563,1538626,244943,84812,790515,305212,13832,19037,132400,2193264,1523290,258112,82947,779035,299079,13974,19112,128300
"Las Vegas-Henderson-Paradise, NV Metro Area",NV,Las Vegas,2141574,1299138,245827,475317,767954,330594,30094,9531,238300,36.17497,-115.13722,Nevada,Mountain,West,1976925,1316033,209072,431587,710058,316478,27970,15247,165000,2003613,1300909,214491,436457,715415,315228,27440,12932,163100,2035572,1297687,220592,445605,724446,317402,27314,10946,170400,2070153,1297573,228502,455832,735475,320381,27724,9249,186700,2112436,1301043,237543,470645,749858,328365,28788,9598,212300
"Kansas City, MO-KS Metro Area",MO,Kansas City,2106632,1651435,261797,141234,821644,399060,33231,6938,173500,39.11417,-94.62746,Missouri,West North Central,Midwest,2025297,1606492,253688,128394,789604,386050,30185,10859,158300,2040869,1614229,256006,131230,792793,385998,30253,10218,158300,2055675,1622391,256899,132761,800071,387067,30539,8410,159500,2070147,1631543,258859,132094,806553,389960,31093,7508,162400,2088830,1641064,260124,138274,815314,395615,32003,7607,166800
"Cleveland-Elyria, OH Metro Area",OH,Cleveland,2061766,1515518,410565,119597,857453,362167,29857,9364,146800,35.15952,-84.87661,Ohio,East North Central,Midwest,2070965,1544163,414087,118205,845349,369167,26449,12576,141900,2067490,1537690,412549,118348,846647,365750,26694,11629,139800,2064483,1532711,412610,118026,847608,364082,26850,11032,138900,2061630,1525780,412837,116355,848772,363019,27410,10964,140200,2062764,1522054,410657,118540,853766,363331,28550,10194,142400
"Austin-Round Rock, TX Metro Area",TX,Austin,2058351,1578653,150694,308123,742689,355825,36256,5939,261400,30.26715,-97.74306,Texas,West South Central,South,1782032,1374164,130701,260028,660308,310264,30932,7320,192000,1835016,1436424,133978,269646,673901,314734,31116,6935,196500,1889094,1482722,138633,278770,689278,324941,31592,6619,208700,1942615,1528195,142102,284151,706066,332699,32378,6132,223500,2000590,1554967,145243,298065,724566,344937,34654,5701,240500
"Columbus, OH Metro Area",OH,Columbus,2054062,1559532,314150,163262,784786,364301,31889,6079,173500,32.46098,-84.98771,Ohio,East North Central,Midwest,1926242,1510163,277105,131684,741026,347806,28865,10865,158100,1948188,1519779,281911,136128,748544,350122,29205,9366,158000,1972375,1530877,287592,140655,756520,352036,29535,8537,159100,1995004,1539809,296212,144820,764973,355019,30189,7380,161700,2023695,1550627,305414,150986,775065,360464,31001,7293,166600
"Indianapolis-Carmel-Anderson, IN Metro Area",IN,Indianapolis,2007497,1546964,302561,137197,767335,358777,31396,8047,155000,39.76838,-86.15804,Indiana,East North Central,Midwest,1911795,1492014,278279,117885,728202,350098,28051,10811,140200,1931182,1503587,282243,119849,734934,350378,28192,10878,139900,1950674,1515706,288032,119700,741817,350626,28449,9972,141800,1968768,1522971,293037,125803,749799,352247,29294,9459,144700,1989032,1538077,296651,132510,759549,356136,30395,8536,148500
"San Jose-Sunnyvale-Santa Clara, CA Metro Area",CA,San Jose,1981616,914311,48498,756708,653265,372591,43829,1663,898300,37.33939,-121.89496,California,Pacific,West,1868323,947104,48603,682834,626372,350012,37476,3822,636900,1898457,955469,49234,700049,631835,354967,37769,3493,654800,1925706,951058,48759,715783,638661,360149,38311,2456,688500,1943107,932437,48443,728952,643969,364645,40096,1882,740400,1969897,917766,48756,750104,647891,367887,41405,1645,815000
"Nashville-Davidson--Murfreesboro--Franklin, TN Metro Area",TN,Nashville,1864138,1451352,283486,149564,704111,351983,31365,5264,217500,36.16589,-86.78444,Tennessee,East South Central,South,1702603,1329117,259834,123973,645758,318511,27249,9941,171800,1730515,1345636,264401,128489,654063,322078,27348,8671,171700,1761848,1370259,268926,134423,664881,328963,28070,7329,174700,1794570,1399093,273285,136408,677129,334864,29079,6568,183400,1830410,1428705,278089,143603,691266,344336,30362,5586,197000
"Virginia Beach-Norfolk-Newport News, VA-NC Metro Area",VA,Virginia Beach,1722001,1019194,526089,113392,644632,305034,31759,8434,242100,36.8529,-75.978,Virginia,South Atlantic,South,1688238,1020899,523437,104291,623647,298768,29807,8606,240000,1697898,1022409,524445,107491,626974,298786,30015,8503,235900,1706878,1025278,525583,107516,631299,298325,29774,8332,233800,1714428,1026935,526114,109321,636750,299172,30229,7860,234200,1717708,1022949,525663,110516,638027,301581,30834,8129,236600
"Providence-Warwick, RI-MA Metro Area",RI,Providence,1615516,1327081,91894,216469,627503,284028,31293,6322,266700,41.82399,-71.41283,Rhode Island,New England,Northeast,1601565,1343890,85972,203420,620095,281255,27346,6469,259500,1604317,1341259,86950,204506,620570,279409,27482,6596,253900,1606424,1336546,88688,208643,622631,280058,28044,6583,250700,1609359,1333522,89803,210736,623173,279983,28919,6434,251400,1613154,1330123,89671,215109,627931,285021,30270,6395,257300
"Milwaukee-Waukesha-West Allis, WI Metro Area",WI,Milwaukee,1575907,1148488,261568,114927,629381,279897,31876,4647,204700,43.0389,-87.90647,Wisconsin,East North Central,Midwest,1560621,1168692,258576,108399,619220,278473,28499,5032,198100,1565368,1166819,258877,108738,622201,279437,28843,5425,194700,1570006,1166909,260540,111229,624146,279923,29332,4941,193600,1571730,1160636,260776,111384,626504,279623,30125,5057,194400,1575101,1157452,261429,111923,627823,280542,30973,4946,197800
"Jacksonville, FL Metro Area",FL,Jacksonville,1475386,1027884,316574,134776,553919,264264,30497,7194,188700,34.8662,-92.11015,Florida,South Atlantic,South,1363610,964700,295052,109896,510520,244646,27417,10617,163600,1380995,976345,297789,112121,516599,245089,27419,9151,158300,1401600,988696,301288,117182,522706,246244,27414,7945,158100,1424097,1002166,304877,119718,531225,250912,28041,7208,163700,1447884,1013357,311616,127005,542219,259111,29767,7295,174000
"Oklahoma City, OK Metro Area",OK,Oklahoma City,1369759,1009382,140763,109711,511536,244688,29724,5368,151900,35.46756,-97.51643,Oklahoma,West South Central,South,1277830,947786,129082,100692,484591,233556,26104,6936,130600,1297998,962807,131681,104740,490013,236385,26614,6488,133700,1318408,978411,132802,107999,494884,236482,26899,6248,137200,1337075,991052,135828,107756,500437,238772,27548,5822,141500,1353504,1000790,138362,108602,505879,241731,28676,5892,146800
"Memphis, TN-MS-AR Metro Area",TN,Memphis,1345991,629111,629900,70837,498143,207652,27360,5054,144300,35.14953,-90.04898,Tennessee,East South Central,South,1331931,644387,606872,67664,486211,205614,25249,8047,134300,1337014,642009,614468,67144,489161,206308,25452,6915,133700,1340336,639353,618891,68510,492066,203952,25484,6279,133300,1341339,633397,625113,67438,495558,206377,26050,5798,134900,1344058,631533,627245,69378,495596,206406,26721,5303,138200
"Raleigh, NC Metro Area",NC,Raleigh,1302632,880329,258844,156724,482401,253090,35563,3899,236200,35.7721,-78.63861,North Carolina,South Atlantic,South,1162689,811525,234978,134994,432699,225924,31893,5948,205400,1189579,827047,240035,139633,440375,228151,31923,5948,206600,1216711,842151,245264,142315,450125,233771,31861,5505,210700,1243720,854526,249748,146736,460183,238738,32512,4588,216600,1273985,868609,253708,154123,471659,246148,34002,4309,224800
"Louisville/Jefferson County, KY-IN Metro Area",KY,Louisville,1285270,1028556,183864,70036,501246,231156,30173,5389,161800,38.25424,-85.75941,Kentucky,East South Central,South,1244880,1009130,173043,61776,490090,229678,26411,7816,147100,1253305,1013586,174174,63449,491885,228179,26659,7836,148000,1261936,1018206,175854,63662,492904,226916,26808,7368,148900,1269550,1023003,178387,64986,497174,227783,27485,6685,151800,1278203,1026770,181114,67043,498979,229734,29083,6008,155700
"Richmond, VA Metro Area",VA,Richmond,1281530,790088,380799,98661,484791,224919,33033,4064,228700,39.82894,-84.89024,Virginia,South Atlantic,South,1221729,762861,367970,87632,460627,217123,30172,5628,219000,1234058,768071,371424,90640,463593,217199,30442,5288,214900,1246215,771833,373687,91777,468648,216945,30404,4635,213000,1258158,776370,376247,91617,475648,219469,30874,4514,214500,1270158,782567,378243,94065,479256,222295,31881,4029,220400
"New Orleans-Metairie, LA Metro Area",LA,New Orleans,1263635,726976,443225,95510,480838,195030,27873,5664,190000,29.95465,-90.07507,Louisiana,West South Central,South,1209239,706845,418024,86328,467269,193536,25477,8348,174700,1226440,716227,425504,88260,470837,192406,25690,7485,173600,1239697,724022,431024,90503,475118,191783,25869,6668,176000,1250247,727378,436558,92436,479206,193694,26293,5928,179500,1260660,728761,441391,95745,480817,195481,27019,5383,184100
"Hartford-West Hartford-East Hartford, CT Metro Area",CT,Hartford,1209367,918028,135378,160392,471188,222928,37021,5367,246600,41.76371,-72.68509,Connecticut,New England,Northeast,1213883,937276,130949,155700,468342,224916,33175,4747,249900,1215159,937587,131833,155291,469020,223638,33437,4864,247200,1214056,933924,133307,158432,466946,224005,33866,5420,245000,1211826,929883,133213,157306,468247,223412,35056,5480,244000,1213123,924335,135050,159687,470348,224795,35971,5675,244300
"Salt Lake City, UT Metro Area",UT,Salt Lake City,1185990,946014,20883,145628,389330,215166,31725,2392,276200,40.76078,-111.89105,Utah,Mountain,West,1107434,942124,18038,128715,362370,201217,27316,4540,228700,1123643,942595,17983,133639,366510,203023,27704,4366,227700,1139851,944295,18472,136133,370523,204942,28200,3753,231000,1154504,942742,18699,138143,375127,207578,29330,3152,239700,1170057,944043,19419,139928,382620,211738,30681,3001,255100
"Birmingham-Hoover, AL Metro Area",AL,Birmingham,1147054,755881,329444,44980,440651,210224,28243,5327,156900,33.52066,-86.80249,Alabama,East South Central,South,1132182,759032,322163,46301,435313,209896,25468,8190,143400,1135534,758214,323519,44661,435724,208741,25425,8396,144000,1138476,757389,325219,45191,438124,210140,25636,7205,146200,1141309,757609,326204,44783,439027,209006,26216,6787,149000,1144097,756098,327640,44925,440261,208919,27097,6142,152200
"Buffalo-Cheektowaga-Niagara Falls, NY Metro Area",NY,Buffalo,1131570,902179,138620,73678,476058,201630,30535,5378,141500,45.17191,-93.87469,New York,Mid-Atlantic,Northeast,1134695,922982,136622,66907,468528,201567,26623,5174,120700,1135667,918367,137038,67873,470035,200567,26959,5203,122600,1135734,913210,138481,69909,470653,200188,27262,4989,125000,1135503,910187,138633,69806,470460,199688,28122,5017,129800,1136670,907751,139418,71618,474349,201273,29268,5356,135000
"Rochester, NY Metro Area",NY,Rochester,1074667,872779,123511,74997,431331,192671,30108,3335,140800,44.02163,-92.4699,New York,Mid-Atlantic,Northeast,1081126,882105,123842,71526,426652,196176,26996,3586,130100,1082578,881473,123603,71927,429370,193807,27284,3413,130900,1083156,879923,125310,72803,430459,193126,27272,3355,133500,1082226,879359,124911,74188,430926,192618,27902,3376,135400,1080653,876258,124259,75085,431327,193197,28878,3104,138300
"Grand Rapids-Wyoming, MI Metro Area",MI,Grand Rapids,1050440,884536,68125,71540,388060,207007,29117,2432,164300,42.96336,-85.66809,Michigan,East North Central,Midwest,998916,859202,64460,61771,370049,200658,25264,5397,139300,1007329,862058,65855,63943,372118,200478,25583,4816,139100,1017877,868214,66620,66078,375364,200212,25810,3845,141100,1028173,875264,66356,66728,378172,200922,26421,2905,146300,1039182,880197,67306,68963,383745,204360,27429,2707,154700
"Tucson, AZ Metro Area",AZ,Tucson,1019722,777452,35973,132235,400907,174763,26451,5231,173500,32.22174,-110.92648,Arizona,Mountain,West,986891,782731,35791,125970,384041,170483,24147,6938,167500,993144,782395,35426,127106,386155,169997,24266,6673,161700,998537,777699,36123,129067,389658,169543,24172,6233,159900,1003338,775748,35337,129465,395390,171988,24415,5577,160800,1007257,774499,34872,129234,398530,173041,25347,5451,166300
"Urban Honolulu, HI Metro Area",HI,Honolulu,987638,207525,23472,192672,311525,164407,35569,1595,649800,21.30694,-157.85833,Hawaii,Pacific,West,964678,205420,22246,189027,309803,162374,31668,2086,556300,975690,209847,24169,189052,310141,162151,31971,1917,564400,984178,213878,25901,187669,309602,163201,32043,1894,580200,986999,208830,23334,190161,309548,163910,32465,1557,602700,990060,209222,23248,192322,311451,164797,34244,1339,626400
"Tulsa, OK Metro Area",OK,Tulsa,985233,702830,78792,64502,380053,184152,29268,4543,144300,36.15398,-95.99278,Oklahoma,West South Central,South,945802,688892,76794,54470,367897,181431,26028,5623,127800,954055,692020,76844,55995,369720,180616,26425,5449,129100,962676,694422,77063,58065,372665,181458,26714,5090,131400,970603,696902,76645,60345,375807,182027,27202,4744,134700,977869,698596,77729,62567,378264,182803,28216,4713,139100
"Fresno, CA Metro Area",CA,Fresno,978130,627437,47372,208818,304624,142835,23432,1941,237500,29.53885,-95.44744,California,Pacific,West,939605,560516,47790,205349,289811,139122,20810,3179,195400,948844,555967,48276,206325,292550,139639,20721,2684,191700,956749,570451,48499,204747,296305,138710,20870,2189,194600,963160,593119,48434,205766,299456,139277,21314,1953,204900,971616,617322,47715,204366,301824,141665,22230,1892,220600
"Bridgeport-Stamford-Norwalk, CT Metro Area",CT,Bridgeport,944348,691642,107215,205009,340491,181927,39355,4349,422300,41.16704,-73.20483,Connecticut,New England,Northeast,926233,694586,102414,187921,332655,177611,35273,4047,432100,934215,694475,103232,191275,333502,177309,35688,3837,422400,939983,694797,105683,196082,334320,177986,35978,3704,416000,941618,694622,107282,199191,335209,179406,36597,3955,413400,947328,696286,107305,205984,337678,181175,37120,4326,417800
"Worcester, MA-CT Metro Area",MA,Worcester,938818,794133,43461,104053,351743,173008,33499,3161,259300,42.26259,-71.80229,Massachusetts,New England,Northeast,920803,798182,37019,96476,343681,172620,30696,3526,251200,924722,797543,38286,98538,344842,172422,30761,3881,247200,928405,795181,40258,100135,345452,170666,30701,3687,244400,930667,794636,41745,100318,347055,170920,31338,3391,245200,934923,794817,42175,102500,350504,172683,32146,3311,250400
"Omaha-Council Bluffs, NE-IA Metro Area",NE,Omaha,922891,778279,70434,67191,355832,176775,34037,2498,163400,41.25861,-95.93779,Nebraska,West North Central,Midwest,876355,738128,67423,59651,337153,168002,29868,3909,145900,886157,749149,68538,60774,340906,168212,30146,3504,145900,895919,756180,69641,62221,344424,170632,30652,3234,148200,904834,765284,69570,63370,347727,170892,31308,2935,152100,914190,774046,69770,65536,352312,174873,32376,2639,157500
"Albuquerque, NM Metro Area",NM,Albuquerque,910012,677528,23470,83661,349150,150967,27514,4614,186300,35.08449,-106.65114,New Mexico,Mountain,West,893241,636773,24073,87322,342831,151914,26477,4365,179100,899137,645190,24014,87813,344168,151420,26475,4146,177100,902731,650967,24692,86810,343434,150186,26107,4599,177100,904486,657584,23647,85548,343268,150609,26506,4719,177900,905049,672071,23443,83849,345399,149775,27046,4805,181300
"Greenville-Anderson-Mauldin, SC Metro Area",SC,Greenville,883853,682291,145907,52132,338714,167944,26293,3070,154600,33.41012,-91.06177,South Carolina,South Atlantic,South,834277,656620,138341,48037,317600,159741,23182,5847,137300,842817,662288,140816,47480,320027,160488,23431,5349,137600,852631,668403,143005,48740,323691,162942,23728,4709,140000,862064,674031,144201,49396,328367,163861,24341,3983,143700,872463,678280,145409,50243,334042,166214,25374,3598,148700
"Bakersfield, CA Metro Area",CA,Bakersfield,883053,663592,48179,176344,267913,136858,24143,3356,205200,35.37329,-119.01871,California,Pacific,West,848204,613143,47548,174673,255271,129897,21101,3879,161700,857730,632452,48412,175262,257737,131617,21224,3200,161800,865736,646683,49021,176115,259700,132357,21458,2876,167400,871337,647832,48264,176647,262337,134188,22068,2806,175600,878744,660196,48078,175287,264993,134838,23007,3015,190600
"Albany-Schenectady-Troy, NY Metro Area",NY,Albany,880481,730966,69112,69361,350301,157732,34665,3343,208200,31.57851,-84.15574,New York,Mid-Atlantic,Northeast,873238,740929,68053,60472,346281,160590,31266,3651,197500,875567,740173,67181,60512,347401,158430,31608,3491,196800,877846,738444,68208,61526,345988,157850,31543,3501,197400,879291,736238,68023,64525,345957,157813,31959,3343,200100,881862,735020,68660,67634,349325,158428,32971,3176,203300
"Knoxville, TN Metro Area",TN,Knoxville,868499,778593,49381,34485,344901,173390,26402,4915,163600,35.96064,-83.92074,Tennessee,East South Central,South,843268,761541,50197,30679,341859,172089,23894,4741,147000,847765,763715,50269,32194,340980,170064,23859,4470,148200,852159,766783,50252,33042,341889,171451,23919,4725,150800,857111,770692,49747,33767,342226,171929,24428,4975,154800,862490,774174,49354,34663,344088,173168,25449,4876,158700
"New Haven-Milford, CT Metro Area",CT,New Haven,859339,634586,113737,104939,329857,144460,34664,3571,246700,41.30815,-72.92816,Connecticut,New England,Northeast,862611,649673,108359,100759,328013,151160,30854,3578,256900,863148,649232,109755,100989,327086,148754,31002,3530,250400,862224,646775,110719,103280,326028,146853,31369,3460,245200,860874,644385,110829,103937,326487,146029,31904,3626,244000,862127,641178,112152,103028,327402,145850,33190,3818,244400
"McAllen-Edinburg-Mission, TX Metro Area",TX,McAllen,849389,747125,4647,230582,234879,126778,18579,2970,84000,26.2034,-98.23,Texas,West South Central,South,790646,702346,4535,231815,217691,124713,15986,3208,78100,806447,735369,4744,233400,221150,125929,16382,2782,78900,819217,748844,5080,235860,224021,126203,16458,2884,79200,828334,744392,4890,230966,227477,125594,17188,2630,81400,839539,746211,4797,229053,232523,127466,17858,2809,82400
"Oxnard-Thousand Oaks-Ventura, CA Metro Area",CA,Oxnard,848112,680197,14835,186780,271226,150646,32246,1797,559700,34.1975,-119.17705,California,Pacific,West,829017,629868,15179,189104,267076,149005,29738,1875,442200,835790,649278,15035,190562,267829,149020,29886,1576,444800,840833,662754,15063,191739,268969,149844,30055,1484,458100,843110,669728,14847,192397,269338,150328,30644,1344,481400,847834,677010,14805,190782,270046,150605,31387,1425,520300
"El Paso, TX Metro Area",TX,El Paso,841752,675103,28789,209487,266624,129804,22066,3278,118900,31.75872,-106.48693,Texas,West South Central,South,816409,660492,26537,212121,256669,128761,19537,2792,111400,827206,676066,28018,214493,258622,129157,19745,3005,112500,834425,691355,29403,213291,260580,130728,20379,3197,113600,837073,693406,29126,212714,262355,131649,20758,3128,114500,838527,679882,28778,213715,264090,130498,21472,3313,116300
"Allentown-Bethlehem-Easton, PA-NJ Metro Area",PA,Allentown,834615,700333,47918,76365,319220,162194,30978,3215,207200,40.60843,-75.49018,Pennsylvania,Mid-Atlantic,Northeast,823731,703051,42892,66422,312844,163635,27379,4060,207000,826260,700433,43734,67990,313786,162813,27692,4045,202900,828232,699706,43803,70118,314305,162317,27921,3896,199800,830737,699603,45091,71919,315449,161708,28898,3685,200000,832790,700165,46910,72481,318429,162381,30147,3927,202800
"Baton Rouge, LA Metro Area",LA,Baton Rouge,829642,492514,293907,32451,301463,134230,28870,3487,173700,30.45075,-91.15455,Louisiana,West South Central,South,808816,487178,287579,28833,295913,133976,26212,3821,158100,814805,489906,289974,29513,299156,134398,26529,3915,158600,819861,492179,290894,30139,300913,134215,26800,3519,161800,824667,492913,292728,30213,301189,132987,27187,3459,164500,828741,493718,293605,32336,301894,134303,28294,3214,168200
"Columbia, SC Metro Area",SC,Columbia,816664,488977,271564,40609,308718,136222,28072,4548,149700,39.24038,-76.83942,South Carolina,South Atlantic,South,776794,473931,258146,37563,294291,133913,25866,4536,139400,784698,476637,260138,39339,296439,133279,25675,4726,138500,792530,479605,262676,39327,297977,133855,25856,4814,140600,800559,483017,266113,38754,301048,134259,26513,4745,143000,808377,486443,269161,41209,305203,135271,27131,4326,145900
"Dayton, OH Metro Area",OH,Dayton,802645,628914,123398,35883,330381,145681,28681,4291,129800,39.75895,-84.19161,Ohio,East North Central,Midwest,801888,634870,125180,29141,326653,145454,25204,5215,124000,801259,632837,125258,29991,327391,144607,25575,4837,122700,801472,632353,124345,31684,328004,144914,25851,4752,122600,800950,631019,123845,32555,328062,144194,26348,4431,122900,800893,629408,123367,34758,329097,146294,27193,4448,125800
"North Port-Sarasota-Bradenton, FL Metro Area",FL,North Port,785997,695708,50995,98043,324203,164373,29676,5481,228200,27.04422,-82.23593,Florida,South Atlantic,South,712581,625874,46965,87896,301752,149848,25917,7657,170900,722784,634633,47777,88324,306165,153252,26360,7056,169000,735767,648306,50382,90763,309910,155766,26739,6154,175100,751422,665541,49469,91865,311566,156913,27087,5636,189400,768381,680275,50492,95937,318253,160701,28150,5574,207600
"Charleston-North Charleston, SC Metro Area",SC,Charleston,759247,515005,197074,37575,285962,133690,31042,3592,221800,39.49615,-88.17615,South Carolina,South Atlantic,South,682904,457689,186957,35948,259430,119702,26582,4980,186900,697281,468674,188704,35303,264864,122145,26943,4610,186700,712232,480080,191661,35879,268904,123634,27426,4199,189600,728271,491854,193495,35881,274408,125681,28762,3671,195700,744195,503404,196047,37061,281245,130680,30238,3842,207500
"Greensboro-High Point, NC Metro Area",NC,Greensboro,757810,481805,202596,66588,295973,134757,26771,3142,145900,36.07264,-79.79198,North Carolina,South Atlantic,South,730342,480347,188554,61060,288506,132205,24288,5322,140600,735777,482687,191047,62258,290505,132314,24644,4791,140000,741433,481845,194660,62679,291630,132967,24750,4345,140700,746301,481735,197630,64266,292685,132639,25193,3689,140900,751590,480759,200455,65092,293839,133781,25972,3281,143800
"Little Rock-North Little Rock-Conway, AR Metro Area",AR,Little Rock,734502,519364,170821,31053,282138,130225,28687,5047,150500,34.74648,-92.28959,Arkansas,West South Central,South,709447,516732,159192,27907,273230,128664,26142,5631,135000,716849,521422,162241,28660,274285,128715,26343,6369,136400,722684,521931,164730,28515,276358,129591,26333,5942,139000,727371,521616,166388,28702,278116,129523,26777,5388,141700,730346,519151,168175,30130,279408,129569,27456,5322,146000
"Stockton-Lodi, CA Metro Area",CA,Stockton,732212,411958,52023,170888,226727,117049,27467,1080,313800,37.9577,-121.29078,California,Pacific,West,693177,407287,49901,159987,215563,111745,23677,2651,208000,701050,405458,50377,161686,217343,111709,23500,2079,211300,708554,403891,50263,165260,219073,113594,23806,1836,223000,714860,403016,49874,166244,221707,114909,24726,1416,246900,724153,404806,50433,168377,223808,116150,26020,1195,281100
"Cape Coral-Fort Myers, FL Metro Area",FL,Cape Coral,718679,609126,61829,119426,271861,139090,27201,5510,207700,26.56285,-81.94953,Florida,South Atlantic,South,633968,533670,53045,95483,241531,125312,24567,8236,149400,647554,545605,55693,99454,246061,125171,24594,6821,150000,663675,561079,57315,102662,252287,128150,24877,6595,157400,680970,578220,58757,106476,258084,132317,25469,5611,171100,700165,593227,60664,113019,264325,136060,26138,5508,190200
"Colorado Springs, CO Metro Area",CO,Colorado Springs,712266,570192,43473,48471,263562,140682,31688,2361,255200,38.83388,-104.82136,Colorado,Mountain,West,657699,537251,37830,46185,246473,130821,29330,3300,214200,669070,543280,38717,46849,249765,132125,29393,3045,215300,678364,547666,39809,47431,254868,135928,29844,2779,219300,688643,555626,40982,47889,259041,138368,30382,2566,227800,698595,559248,41615,47121,259821,139936,31059,2354,239100
"Akron, OH Metro Area",OH,Akron,704454,574542,84790,33729,286378,129103,28892,2985,144900,41.08144,-81.51901,Ohio,East North Central,Midwest,704979,586456,83734,29228,281367,131626,26065,3946,139100,703017,582561,83697,29576,281752,130688,26239,3358,137600,703744,580792,83861,30960,281957,130090,26382,3381,137900,703168,578595,84285,32671,283472,129886,26767,3358,138400,703398,575891,85030,33877,285229,129868,27570,3168,140800
"Boise City, ID Metro Area",ID,Boise,693952,616708,6985,45425,253531,131373,28411,2050,214300,43.6135,-116.20345,Idaho,Mountain,West,628966,576994,4737,41795,228270,124876,25039,4182,166300,639616,585465,5245,43094,232248,126052,25449,3668,164400,651402,594247,5665,45267,236303,126305,25592,2845,167800,663680,601082,6140,43358,240902,126314,26207,2404,176600,677346,608261,6584,43405,247290,128678,27218,2336,192600
"Lakeland-Winter Haven, FL Metro Area",FL,Lakeland,668671,520186,101690,66960,231260,116128,25525,4828,135400,28.03947,-81.9498,Florida,South Atlantic,South,610295,481454,90406,62357,219540,111456,22453,5788,111400,617323,486381,92931,62198,220556,111638,22736,5578,107100,626676,493630,94487,62222,221381,111361,22896,5340,107300,637691,500894,96445,62942,223060,111553,23658,5117,110400,652256,510554,99355,65002,226604,114167,24479,5243,121100
"Winston-Salem, NC Metro Area",NC,Winston-Salem,661798,501669,117669,45482,262905,127313,27266,3813,147600,36.09986,-80.24422,North Carolina,South Atlantic,South,644250,490329,113545,44727,255148,125510,24998,4725,142800,648045,495545,114646,45188,256301,124260,25006,4236,141900,651630,498827,115226,45210,257656,125417,24796,4152,143000,654589,499502,115789,43226,259085,125582,25206,4089,143700,658195,500332,116487,44249,260518,126956,26240,4211,145000
"Syracuse, NY Metro Area",NY,Syracuse,654705,552435,55464,40437,257682,116420,30401,2987,134000,43.04812,-76.14742,New York,Mid-Atlantic,Northeast,661838,565425,53470,37229,256745,117070,27158,3184,122900,662236,562969,54270,37665,256796,116168,27325,3237,124400,661914,560980,54399,38636,256229,115347,27596,3396,126700,660652,558814,54636,38593,256420,115182,28060,3288,128200,659262,556104,55155,39449,258028,116306,29321,3362,131100
"Ogden-Clearfield, UT Metro Area",UT,Ogden,652744,587575,7610,35376,205890,132447,31194,2309,235700,41.223,-111.97383,Utah,Mountain,West,605609,540444,7221,32842,193830,123691,27851,1926,197700,614521,549602,6916,33956,195735,125446,27931,1934,198200,623323,557941,6802,34648,197475,125781,27877,2031,199300,632793,568529,7109,34667,199388,127892,28959,2157,206900,642274,578511,7260,34530,202991,130838,30141,2301,220600
"Madison, WI Metro Area",WI,Madison,647281,555706,28399,48288,268213,126290,35732,1710,238800,34.69926,-86.74833,Wisconsin,East North Central,Midwest,614019,538086,26422,41925,253967,120726,31224,2646,217500,620368,540469,26904,42399,255724,121168,31476,2705,217500,627618,543929,27592,43632,258237,121491,31576,2582,219200,634269,547850,27778,45044,261002,123240,32116,2319,224200,640072,551421,27796,47297,265003,124695,33928,1886,230200
"Wichita, KS Metro Area",KS,Wichita,643765,524040,48395,46788,246047,120196,29865,3036,133700,37.69224,-97.33754,Kansas,West North Central,Midwest,633020,518762,46914,44912,242541,119514,26994,3539,121600,636095,523461,48055,46427,241831,120404,27324,3873,122800,638884,527094,48854,47288,242912,119954,27511,3614,124400,640505,529854,48563,46916,243758,120279,27987,3166,126300,642339,527374,48552,46992,245121,120594,28952,3331,129300
"Deltona-Daytona Beach-Ormond Beach, FL Metro Area",FL,Deltona,634773,523263,68312,53009,253614,118958,25801,4208,170600,28.90054,-81.26367,Florida,South Atlantic,South,593569,486023,62967,47631,231554,113381,22861,7104,148500,597824,491398,63152,50346,233031,112993,22851,6338,139800,604502,499718,64336,50210,237130,113398,22775,5619,138900,613723,510065,65165,49677,243460,115031,23507,4824,147000,623675,516847,66000,50345,249318,117080,24495,4622,156900
"Des Moines-West Des Moines, IA Metro Area",IA,Des Moines,634201,549836,32706,50185,246304,123910,35905,2293,176300,41.60054,-93.60911,Iowa,West North Central,Midwest,580913,509303,27217,42916,227537,117366,31853,2647,156400,590741,517413,28629,44386,229824,118267,32485,2814,157800,601187,526916,29495,45706,233390,119309,32425,2594,160100,611755,534055,30607,46804,237527,120031,33312,2211,164500,623113,541858,31535,48761,242050,121914,34519,2295,169400
"Springfield, MA Metro Area",MA,Springfield,630275,522739,45654,54187,237708,99487,27060,1662,222600,39.80172,-89.64371,Massachusetts,New England,Northeast,624411,504738,44816,56394,236818,101562,24892,2171,215600,626775,507497,44751,55372,236512,101521,25143,1941,214000,628800,510821,44880,54290,235531,100372,25010,1993,214100,629107,516184,44846,54602,235601,99723,25603,1751,214600,630385,519110,45717,54231,237713,100581,26282,1599,217500
"Toledo, OH Metro Area",OH,Toledo,604620,470714,85364,21610,245933,103286,27027,2779,124400,41.66394,-83.55521,Ohio,East North Central,Midwest,609437,482751,87057,19970,243472,106025,23630,3739,118200,608847,480039,86311,20313,244015,104743,23908,3403,115900,607631,477157,85922,19988,243939,103643,24127,2924,114700,606684,475803,86967,19989,244742,103100,25128,2806,116700,605204,473066,86170,21273,245562,103736,25758,2896,120500
"Provo-Orem, UT Metro Area",UT,Provo,601388,552662,3603,42999,164039,115500,24967,1077,278200,40.23384,-111.65853,Utah,Mountain,West,539562,493176,3187,38386,146021,103289,21571,1651,220800,550774,504997,3318,38908,148535,105327,21634,1418,221100,562357,517338,3366,39888,151570,107699,21833,1380,227100,574684,529992,3354,39546,154497,110118,22224,1247,238100,587190,540416,3458,41923,158951,112715,23539,1175,255100
"Augusta-Richmond County, GA-SC Metro Area",GA,Augusta,594300,347410,211628,28257,214489,100820,25858,4610,139600,33.47097,-81.97484,Georgia,South Atlantic,South,570516,334653,203160,22874,208170,96245,23696,4614,124700,575669,338282,204738,24275,208736,96070,23935,4604,125900,580178,339550,206338,24679,209672,97745,24037,4548,128200,584964,342338,208335,26107,211238,98781,24304,4449,130700,589519,345479,209658,26917,212603,99983,24961,4360,133500
"Jackson, MS Metro Area",MS,Jackson,580280,276599,285789,14453,210993,93545,27233,2955,143900,32.29876,-90.18481,Mississippi,East South Central,South,571881,277978,276714,14240,205802,90237,24103,2819,127500,574998,278255,279311,14216,206923,91699,24630,2924,129800,577070,278399,280749,14273,207730,91060,24959,2588,133300,578095,277097,283628,13781,209150,92089,25345,2534,135900,578565,275924,284499,14081,210526,93346,26547,2679,139600
"Palm Bay-Melbourne-Titusville, FL Metro Area",FL,Palm Bay,576808,476767,58100,49676,228888,111018,27222,2724,177400,28.03446,-80.58866,Florida,South Atlantic,South,545667,456026,54822,47511,220277,107860,25341,5240,144900,548891,456683,56026,48234,221582,106355,25507,4541,138500,553591,459762,56914,47947,222791,105448,25490,3738,142200,560683,466147,57306,48402,224373,107301,25488,3349,150500,568183,470794,57728,48940,227223,109829,26236,2760,162400
"Harrisburg-Carlisle, PA Metro Area",PA,Harrisburg,567872,457905,62522,36722,228652,111048,32957,2204,179500,40.2737,-76.88442,Pennsylvania,Mid-Atlantic,Northeast,552292,455682,55664,29279,222290,109151,30142,2995,169200,555154,455719,56556,31189,222939,108681,30249,2573,169900,558198,456265,57434,33259,223658,109569,30333,2606,170700,561447,456856,58916,34474,224595,109671,30982,2595,173200,565008,457882,60705,35958,227344,110433,31930,2225,175600
"Durham-Chapel Hill, NC Metro Area",NC,Durham,558491,346888,148638,68495,220244,96686,31563,1835,223000,35.99403,-78.89862,North Carolina,South Atlantic,South,516798,318712,138459,63260,204016,90286,26977,3004,193100,525050,324654,141010,63672,206783,91121,27698,2655,194100,534154,332434,143325,65318,210161,92291,27888,2524,197600,542399,337373,145556,64839,213280,94178,29149,2368,203400,550281,340654,147728,66899,217016,95595,30655,2269,212400
"Scranton--Wilkes-Barre--Hazleton, PA Metro Area",PA,Scranton,556926,502392,20927,32278,225466,100507,26906,3251,137300,41.40897,-75.66241,Pennsylvania,Mid-Atlantic,Northeast,563279,519907,18068,27499,227641,104545,23597,3810,131000,562644,518013,18491,28254,225565,102767,23856,3580,132500,561701,512885,19401,28624,224620,101107,24286,3760,133000,559898,510005,19384,29341,223489,100252,24962,3668,134700,557942,506084,19975,30871,224955,101350,25964,3525,136300
"Spokane-Spokane Valley, WA Metro Area",WA,Spokane,555308,489982,8244,28679,221704,107447,28240,2222,207000,47.65966,-117.42908,Washington,Pacific,West,530301,473932,9254,27795,210740,102966,25305,2851,183800,533456,476140,9536,28232,211284,103628,25585,2785,181100,537348,478862,9022,29085,212546,103948,25449,2673,182200,542604,482509,8984,28400,214073,104130,25987,2490,185400,547688,485599,8577,28441,218166,106278,27042,2527,194400
